- name: Weitra
  latitude: 48.7351
  longitude: 14.8853
- name: Niederneukirchen
  latitude: 48.2506
  longitude: 14.4028
- name: Tenerife
  latitude: 28.2916
  longitude: -16.6291
- name: Verudela Beach
  latitude: 44.8416
  longitude: 13.8153
- name: Paris
  latitude: 48.8566
  longitude: 2.3522
- name: Lanzarote
  latitude: 29.0469
  longitude: -13.5899
- name: Radstadt
  latitude: 47.3849
  longitude: 13.4663
- name: Kaprun
  latitude: 47.2729
  longitude: 12.7623
