- name: Bibione
  latitude: 45.6506
  longitude: 13.0478
- name: Jesolo
  latitude: 45.4964
  longitude: 12.6463
- name: Sorrento
  latitude: 40.6263
  longitude: 14.3759
- name: Rio de Janeiro
  latitude: -22.9068
  longitude: -43.1729
- name: Sao Paulo
  latitude: -23.5505
  longitude: -46.6333
- name: New York
  latitude: 40.7128
  longitude: -74.0060
- name: Dallas
  latitude: 32.7767
  longitude: -96.7970
- name: San Diego
  latitude: 32.7157
  longitude: -117.1611
- name: Curitiba
  latitude: -25.4284
  longitude: -49.2733
- name: Vancouver
  latitude: 49.2827
  longitude: -123.1207
- name: Mombasa
  latitude: -4.0435
  longitude: 39.6682
- name: Cancun
  latitude: 21.1619
  longitude: -86.8515
- name: Melbourne
  latitude: -37.8136
  longitude: 144.9631
- name: Sydney
  latitude: -33.8688
  longitude: 151.2093
- name: Darwin
  latitude: -12.4634
  longitude: 130.8456
- name: London
  latitude: 51.5074
  longitude: -0.1278
- name: Paris
  latitude: 48.8566
  longitude: 2.3522
- name: Madrid
  latitude: 40.4168
  longitude: -3.7038
- name: Tunis
  latitude: 36.8065
  longitude: 10.1815
- name: Stockholm
  latitude: 59.3293
  longitude: 18.0686
- name: Hamburg
  latitude: 53.5511
  longitude: 9.9937
